Latitude,Longitude,City Name,Country,Temperature F,Humidity (%),Cloudiness (%),Wind Speed (mph)
-54.8,-68.3,Ushuaia,AR,32.015,90.375,38.5,18.405
-53.15,-70.916667,Punta Arenas,CL,37.22749999999999,96.875,51.0,28.415
-51.622613,-69.218127,Rio Gallegos,AR,37.4675,81.625,25.5,27.8825
-46.6,168.333333,Bluff,NZ,47.996249999999996,100.0,2.0,8.11375
-46.4,168.35,Invercargill,NZ,39.6825,89.125,10.0,3.90625
-46.35,168.016667,Riverton,NZ,41.3925,88.0,13.5,4.08625
-46.120833,169.969444,Milton,NZ,40.447500000000005,88.875,13.0,5.443749999999999
-45.866667,170.233333,Outram,NZ,38.16375,90.25,21.5,3.6849999999999996
-45.566667,-72.066667,Coihaique,CL,38.223749999999995,74.5,59.0,4.41
-45.416667,167.716667,Te Anau,NZ,35.7225,81.625,0.0,2.7875
-45.183333,169.316667,Clyde,NZ,31.695,72.875,2.5,2.06125
-44.7,169.15,Wanaka,NZ,31.695,72.875,2.5,2.06125
-44.4,171.25,Timaru,NZ,41.347500000000004,99.375,37.5,3.4575
-44.266667,171.133333,Pleasant Point,NZ,41.347500000000004,99.375,37.5,3.4575
-43.766667,172.3,Leeston,NZ,46.426249999999996,97.5,57.0,4.52125
-43.65,172.483333,Lincoln,NZ,46.426249999999996,97.5,57.0,4.52125
-43.300158,-65.10228,Rawson,AR,62.36249999999999,34.25,43.0,12.995000000000001
-43.25,172.666667,Sefton,NZ,45.53,100.0,81.0,7.9325
-42.883209,147.331665,Hobart,AU,48.88249999999999,80.5,4.5,6.49375
-42.716667,170.966667,Hokitika,NZ,48.69375000000001,91.125,0.0,7.513750000000001
-42.463611,-73.808333,Castro,CL,49.2,94.75,76.5,6.715000000000001
-41.75,171.566667,Westport,NZ,45.431250000000006,81.75,0.0,3.33125
-41.666667,174.083333,Seddon,NZ,48.5475,97.875,38.0,22.30375
-41.4,173.05,Wakefield,NZ,43.451249999999995,57.75,3.0,3.12375
-41.083333,173.0,Riwaka,NZ,49.99875,81.875,7.0,12.9375
-40.959722,175.6575,Masterton,NZ,46.75875,99.75,97.0,17.63625
-40.633333,175.275,Levin,NZ,47.44499999999999,100.0,72.0,20.39
-40.466667,175.5,Tokomaru,NZ,47.68125,98.125,92.0,13.944999999999999
-40.283333,-73.083333,La Union,CL,44.1375,83.125,36.0,2.5637499999999998
-40.033333,176.35,Takapau,NZ,48.176249999999996,97.125,88.5,12.211250000000001
-39.933333,175.566667,Hunterville,NZ,47.68125,98.125,92.0,13.944999999999999
-39.591667,174.283333,Hawera,NZ,51.21374999999999,100.0,90.5,34.16
-39.455556,173.858333,Opunake,NZ,51.21374999999999,100.0,90.5,34.16
-39.2,173.883333,Okato,NZ,52.485,98.875,51.0,27.74375
-38.95,-72.633333,Freire,CL,45.644999999999996,85.625,31.0,2.41125
-38.653333,178.004167,Gisborne,NZ,49.72875,97.125,91.5,9.68
-38.466667,175.016667,Piopio,NZ,49.7625,77.125,50.5,9.82
-38.35,145.2,Crib Point,AU,53.137499999999996,88.25,10.0,9.247499999999999
-38.159119,145.931183,Warragul,AU,51.91125,76.25,12.5,4.0600000000000005
-37.766667,176.45,Maketu,NZ,50.7975,99.625,53.0,10.5475
-37.716667,-72.233333,Mulchen,CL,48.795,72.125,12.5,2.95625
-37.366667,175.666667,Paeroa,NZ,49.5825,92.625,50.0,4.353750000000001
-37.083333,-73.166667,Lota,CL,50.00000000000001,82.625,15.5,3.795000000000001
-36.916667,-73.016667,Chiguayante,CL,50.00000000000001,82.625,15.5,3.795000000000001
-36.711311,142.199814,Horsham,AU,53.55375,82.75,34.5,11.4275
-36.4,174.666667,Warkworth,NZ,53.355000000000004,96.75,32.5,9.4275
-36.283333,174.516667,Wellsford,NZ,53.71125000000001,96.75,32.5,9.4275
-35.966667,-71.683333,Longavi,CL,49.6275,69.125,3.5,2.2275
-35.933333,173.883333,Dargaville,NZ,51.79875,84.25,37.0,8.57625
-35.616667,174.5,Ngunguru,NZ,54.27374999999999,100.0,25.0,8.211250000000001
-35.354931,149.231995,Queanbeyan,AU,43.31,93.5,55.5,4.19875
-35.116667,-71.283333,Molina,CL,51.62375000000001,78.375,3.0,3.1500000000000004
-34.8580556,-56.1708333,Montevideo,UY,52.47875,82.25,4.0,6.36625
-34.7633333,-56.3852778,Delta Del Tigre,UY,52.47875,82.25,4.0,6.36625
-34.4333333,-57.4166667,Juan Lacaze,UY,53.93625,65.375,0.0,6.60375
-34.3166667,-57.2166667,Nueva Helvecia,UY,53.28375,68.0,0.0,6.1975
-34.0955556,-56.2141667,Florida,UY,51.59625,71.625,6.0,5.42875
-33.889949,-60.573568,Pergamino,AR,57.57,59.125,0.0,11.26125
-33.5441667,-58.1972222,Dolores,UY,54.62625,68.875,0.0,7.317500000000001
-33.335784,-60.225233,San Nicolas,AR,54.32375,62.5,0.0,2.7475
-33.295012,-66.335627,San Luis,AR,64.06125,37.375,0.0,14.7975
-33.047778,-71.601111,Valparaiso,CL,55.00750000000001,84.125,2.0,3.3899999999999997
-32.833333,-70.616667,Los Andes,CL,56.2775,73.0,1.0,2.92625
-32.567421,151.166031,Singleton,AU,52.2075,84.875,27.5,5.46
-32.3666667,-54.1833333,Melo,UY,52.035,89.625,0.0,6.115
-32.175877,26.824372,Whittlesea,ZA,58.852500000000006,33.75,0.0,8.5475
-31.95224,115.861397,Perth,AU,59.5325,75.875,61.5,19.25625
-31.5375,-68.536389,San Juan,AR,57.43499999999999,61.125,0.0,4.64625
-31.43084,152.908936,Port Macquarie,AU,61.741249999999994,87.375,87.5,7.501249999999999
-31.078979,152.830933,Kempsey,AU,61.125,87.375,87.5,7.501249999999999
-30.9,-55.5166667,Rivera,UY,52.53,86.875,0.0,4.885
-30.649657,24.012295,De Aar,ZA,55.82625,23.875,1.5,10.911249999999999
-30.50828,151.671234,Armidale,AU,47.02875000000001,93.75,70.5,7.275000000000001
-30.4,27.7166667,Quthing,LS,55.815000000000005,38.25,0.0,6.46375
-30.031944,-70.708056,Vicuna,CL,53.73125,77.5,1.0,2.69
-29.871962,30.272352,Richmond,ZA,58.278749999999995,51.125,0.0,2.5225
-29.664336,17.886495,Springbok,ZA,43.32750000000001,52.0,1.5,5.8625
-29.328164,31.289537,Stanger,ZA,65.20875,67.75,0.0,6.114999999999999
-28.983333,-52.816667,Ouro Fino,BR,53.7,85.75,23.5,7.91875
-28.81328,153.275803,Lismore,AU,54.31875000000001,98.125,86.5,4.576249999999999
-28.52423,28.81582,Phuthaditjhaba,ZA,50.01,29.5,1.0,4.5075
-28.3,-54.266667,Santo Angelo,BR,53.26124999999999,92.25,1.5,6.239999999999999
-28.1,-50.983333,Estrela,BR,52.53,87.75,57.5,3.29125
-27.916667,-53.283333,Palmeira Das Missoes,BR,52.20375000000001,94.5,6.0,7.652500000000001
-27.566667,-50.116667,Otacilio Costa,BR,50.426249999999996,81.375,8.0,9.597500000000002
-27.4,-56.9,Ayolas,PY,59.33625,93.125,3.0,5.79375
-27.183333,-56.3,Coronel Bogado,PY,58.845,83.125,0.0,3.7375
-26.933333,-52.516667,Xaxim,BR,54.22875,85.875,11.0,4.941249999999999
-26.716667,27.1,Potchefstroom,ZA,62.227500000000006,28.625,0.0,6.787500000000001
-26.6406,-48.6851,Barra Velha,BR,63.638749999999995,92.875,38.5,11.10625
-26.239449,-49.499857,Rio Negrinho,BR,52.935,77.375,14.5,6.353750000000001
-26.033333,-55.933333,Abai,PY,59.55,78.375,4.0,3.4737500000000003
-25.966667,-57.266667,Quiindy,PY,78.99000000000001,85.875,41.5,2.635
-25.7,-56.4,Mbocayaty,PY,59.302499999999995,84.75,1.0,3.43
-25.533333,-55.95,Repatriacion,PY,59.55,78.375,4.0,3.4737500000000003
-25.233333,-57.25,Altos,PY,60.77,84.75,1.0,4.08875
-24.95,-56.116667,San Joaquin,PY,60.36000000000001,83.25,0.0,3.9625000000000004
-24.516667,-55.7,Curuguaty,PY,62.0475,71.875,17.0,3.2925000000000004
-24.283333,-47.466667,Miracatu,BR,55.44375,88.375,79.5,5.749999999999999
-24.1333333,19.1166667,Aranos,NA,67.88625,24.25,7.5,7.8625
-23.9,-56.566667,Nueva Germania,PY,61.94625,79.5,1.5,4.255
-23.75,22.8333333,Kang,BW,80.97,93.25,58.5,4.12875
-23.7,-46.616667,Diadema,BR,54.18875,89.125,38.0,10.01625
-23.65,-70.4,Antofagasta,CL,57.18,90.0,27.0,3.0387500000000003
-23.516667,-46.9,Jandira,BR,54.16250000000001,89.125,38.0,10.01625
-23.1833333,27.5,Machaneng,BW,70.36125,19.0,0.0,4.074999999999999
-23.05,-49.616667,Ipaussu,BR,62.79499999999999,83.625,17.0,6.70125
-22.9833333,27.5833333,Mokobeng,BW,68.4375,38.375,0.0,3.7225
-22.733333,-42.716667,Tangua,BR,66.69624999999999,92.125,78.0,11.148750000000001
-22.533333,-42.983333,Guapimirim,BR,66.6575,98.375,67.5,7.5275
-22.266667,-46.166667,Borda Da Mata,BR,53.7,85.75,23.5,7.91875
-22.016667,-47.9,Sao Carlos,BR,59.43875,73.875,16.5,9.05125
-21.866667,-51.833333,Presidente Venceslau,BR,63.73500000000001,61.5,5.5,8.84125
-21.65,-41.733333,Sao Fidelis,BR,67.57125,87.375,75.0,3.9050000000000002
-21.466667,-47.35,Santa Rosa De Viterbo,BR,59.4725,74.125,23.5,7.4
-21.116667,-44.183333,Tiradentes,BR,63.4875,61.875,1.0,7.0512500000000005
-21.083333,-45.083333,Perdoes,BR,58.88625,89.0,19.0,7.77875
-20.8666667,27.25,Sebina,BW,74.8725,20.625,1.5,9.16375
-20.466667,-55.8,Aquidauana,BR,63.824999999999996,72.625,10.5,6.54875
-20.2369444,57.6633333,Camp De Masque,MU,70.1225,93.375,74.5,13.916250000000002
-20.0186111,57.6447222,Roche Terre,MU,73.11000000000001,100.0,51.0,22.025
-19.833333,-42.316667,Bom Jesus Do Galho,BR,71.07000000000001,67.375,43.0,5.163749999999999
-19.583333,-46.916667,Araxa,BR,58.762499999999996,65.75,12.5,9.15
-19.416667,-40.066667,Linhares,BR,73.62375,81.0,30.0,8.94
-19.233333,-42.466667,Belo Oriente,BR,70.36125,66.875,53.5,3.2625
-18.9166667,47.5166667,Antananarivo,MG,58.688750000000006,71.625,22.0,7.61125
-18.783333,-42.95,Guanhaes,BR,70.46249999999999,58.375,28.5,3.2925000000000004
-18.616667,-51.066667,Cacu,BR,63.42,63.0,3.0,8.786249999999999
-18.2666667,-66.85,Huanuni,BO,35.227500000000006,54.625,8.5,2.8712500000000003
-18.1666667,49.3833333,Toamasina,MG,66.18875,96.875,92.5,3.26375
-17.9,-64.4833333,Comarapa,BO,50.291250000000005,54.875,0.0,2.8724999999999996
-17.6166667,-66.0166667,Tarata,BO,45.698750000000004,61.125,0.0,2.185
-17.5,-63.1666667,Warnes,BO,63.77375000000001,58.625,0.0,9.6825
-17.2963889,31.3297222,Bindura,ZW,70.09124999999999,39.125,0.0,6.1987499999999995
-17.0230556,-72.0147222,Mollendo,PE,59.20125,80.375,0.0,2.56375
-16.8402778,38.2569444,Mocuba,MZ,85.245,47.0,28.5,6.883749999999999
-16.666667,-50.316667,Firminopolis,BR,70.62,41.75,0.0,10.4625
-16.4333333,-60.9,Concepcion,BO,68.01,55.0,0.0,6.2
-16.15,-69.0833333,Copacabana,BO,43.169999999999995,93.875,1.5,7.22
-15.85,-48.95,Pirenopolis,BR,70.7,41.25,0.0,9.07875
-15.7,35.1833333,Chiradzulu,MW,74.97375,58.875,11.5,7.43
-15.4666667,-69.4333333,Putina,PE,33.665,48.625,16.5,5.0525
-15.25,-40.616667,Itambe,BR,70.40625000000001,66.125,24.0,4.816249999999999
-15.083333,-57.183333,Barra Do Bugres,BR,64.32,80.5,1.5,6.7425
-14.7,-74.1333333,Puquio,PE,41.6625,69.5,29.5,3.9625
-14.55,-73.7666667,Tambo,PE,50.53875,68.625,4.0,1.6562499999999998
-14.3666667,34.3333333,Dedza,MW,67.47,63.375,10.0,7.22125
-14.15,-39.366667,Ibirapitanga,BR,71.32875,86.875,34.0,5.68125
-13.7,-76.2166667,Pisco,PE,63.338750000000005,86.125,8.0,3.165
-13.533333,-39.966667,Jaguaquara,BR,72.24,78.375,14.0,6.618749999999999
-13.2333333,30.2333333,Serenje,ZM,70.09125,41.375,0.0,10.352500000000001
-12.977222,-46.891667,Arraias,BR,79.22625,37.875,9.5,4.9275
-12.816667,-42.766667,Boquira,BR,74.2425,58.375,9.0,4.67625
-12.5333333,-76.7333333,Chilca,PE,46.27875,60.5,15.0,1.45875
-12.433333,-39.216667,Santo Estevao,BR,77.1225,66.125,1.5,5.99125
-12.0666667,-75.2333333,Huancayo,PE,37.24125,55.375,4.5,2.075
-11.95,-76.7,Nicolas De Pierola,PE,60.12375,71.25,5.5,1.74125
-11.7,-41.466667,Cafarnaum,BR,74.47874999999999,50.0,25.5,5.30375
-11.4975,-77.2033333,Huaral,PE,62.5875,81.0,5.5,2.71625
-11.316667,-38.25,Itapicuru,BR,77.04374999999999,63.5,0.0,8.86875
-10.9166667,-76.0333333,Carhuamayo,PE,37.86,72.875,6.5,4.94
-10.7,-38.183333,Poco Verde,BR,77.44874999999999,59.375,1.0,8.54625
-10.65,-37.3,Malhador,BR,76.32499999999999,71.0,0.0,9.625
-10.4,-36.416667,Piacabucu,BR,75.93,73.75,0.0,9.75
-10.066667,-38.35,Jeremoabo,BR,77.9775,57.625,1.0,9.41375
-9.966667,-67.8,Rio Branco,BR,73.06499999999998,48.75,0.0,5.8062499999999995
-9.733333,-36.516667,Limoeiro De Anadia,BR,72.735,76.25,8.0,9.44375
-9.5333333,-77.5333333,Huaraz,PE,41.651250000000005,55.375,31.0,1.90625
-9.25,-35.433333,Passo De Camaragibe,BR,73.21999999999998,90.625,31.5,6.93875
-9.0,32.9833333,Mlowo,TZ,67.4925,61.125,76.5,4.2125
-8.9833333,-77.3,Yauya,PE,47.21999999999999,70.25,40.5,1.85
-8.8333333,31.3833333,Mbala,ZM,73.11749999999999,38.25,23.5,8.99625
-8.55,141.65,Morehead,PG,79.08,65.875,0.0,13.302499999999998
-8.366667,-36.7,Pesqueira,BR,70.7325,70.875,9.5,8.407499999999999
-8.0665,112.5981,Pakisaji,ID,73.86,66.0,4.5,2.1725
-7.883333,-37.116667,Monteiro,BR,75.33375,58.125,8.5,8.24
-7.5833333,31.2666667,Chala,TZ,68.415,48.5,3.0,5.275
-7.1988,112.2022,Peterongan,ID,75.42375000000001,68.625,2.5,6.85625
-7.033333,-40.45,Ipueiras,BR,82.03875000000001,43.875,0.0,7.527500000000001
-6.9816,109.1407,Slawi,ID,63.54375,91.25,56.5,3.6675
-6.766667,-35.5,Pirpirituba,BR,75.91625,73.375,18.0,10.4775
-6.483333,-35.3,Montanhas,BR,76.45625,73.375,18.0,10.4775
-6.4333333,38.9,Bagamoyo,TZ,76.11500000000001,83.625,69.0,8.616249999999999
-6.2166667,155.6333333,Kieta,PG,79.09125000000002,99.375,23.0,3.24875
-5.8833333,35.2333333,Kintinku,TZ,73.75874999999999,63.0,0.0,10.741249999999999
-5.65,-37.8,Apodi,BR,84.93,44.375,1.5,10.572500000000002
-5.51,22.266667,Demba,CD,78.02250000000001,76.0,36.0,2.5212499999999998
-5.2166667,145.8,Madang,PG,77.31375,95.75,47.5,3.99125
-5.0666667,39.7166667,Wete,TZ,75.80625,100.0,84.0,9.805
-4.7833333,38.2833333,Lushoto,TZ,66.68249999999999,87.5,64.5,2.29875
-4.483333,-38.616667,Ocara,BR,79.90125,68.75,1.5,12.855
-4.2591667,15.2847222,Brazzaville,CG,78.76749999999998,69.875,25.5,5.975
-4.15,37.85,Mwembe,TZ,68.5275,83.75,75.0,2.6050000000000004
-3.9,-42.7,Porto,BR,83.32124999999999,68.0,4.0,8.04375
-3.6,26.666667,Kampene,CD,77.40375,72.375,39.5,2.17375
-3.45,-40.2,Santana Do Acarau,BR,83.34375,54.625,0.0,9.191249999999998
-3.1833333,33.7833333,Nyalikungu,TZ,71.66625,90.125,18.0,7.7225
-2.95,-44.233333,Rosario,BR,84.51375,65.125,43.5,2.77375
-2.9222222,29.6222222,Kayanza,BI,70.25999999999999,58.0,46.5,3.0262499999999997
-2.6319444,31.3088889,Biharamulo,TZ,68.00999999999999,79.5,52.0,4.99875
-2.4666667,-78.1666667,Sucua,EC,63.91499999999999,94.75,87.0,4.53625
-2.15,33.45,Kibara,TZ,71.66625,90.125,18.0,7.7225
-1.8166667,-79.5166667,Babahoyo,EC,74.14999999999999,82.75,88.0,6.10125
-1.6833333,33.7,Mugango,TZ,71.08125,94.125,45.0,5.93375
-1.4333333,13.1666667,Mounana,GA,75.9525,87.125,60.5,2.69
-1.2,-46.116667,Viseu,BR,81.81375,80.75,9.5,10.58625
-1.0833333,35.8666667,Narok,KE,61.136250000000004,91.0,70.5,6.994999999999999
-0.9166667,-80.4333333,Rocafuerte,EC,72.455,91.5,90.5,3.8649999999999998
-0.6666667,37.2,Sagana,KE,61.0125,98.75,81.0,4.282500000000001
-0.4569444,39.6583333,Garissa,KE,76.43625,75.625,42.5,10.435
-0.1,11.9333333,Booue,GA,75.17625000000001,90.75,65.5,3.3475
0.0333333,36.3666667,Nyahururu,KE,55.01625,94.75,25.5,4.64875
0.2,35.1,Nandi,KE,59.52375000000001,95.875,59.0,2.1849999999999996
0.4186111,33.1730556,Njeru,UG,67.75125,92.625,57.0,4.325
0.783333,24.466667,Yangambi,CD,78.93375,78.5,13.0,2.77375
1.3088889,32.4563889,Nakasongola,UG,67.57124999999999,91.875,33.0,4.673749999999999
1.67145,-77.014082,San Pablo,CO,52.665,86.5,59.5,1.9337500000000003
1.8144444,34.7136111,Nakapiripirit,UG,58.65,96.625,50.5,2.47875
2.386767,-75.545312,Gigante,CO,63.2625,90.125,75.0,2.4525000000000006
2.512044,-76.40124,Totoro,CO,51.326250000000016,84.5,65.0,1.8375000000000004
2.648673,-75.634573,Iquira,CO,66.64625,90.125,75.0,2.4525000000000006
3.05,29.533333,Watsa,CD,71.1825,88.75,20.5,2.9987500000000002
3.316667,101.466667,Batu Arang,MY,77.96374999999999,94.375,62.0,2.8287500000000003
3.986946,-73.757971,Acacias,CO,70.51875,82.125,38.0,2.27
4.353424,-73.711467,El Calvario,CO,58.316250000000004,92.375,73.5,1.375
4.817222,-72.288611,Mani,CO,74.09625,93.5,66.0,7.178750000000001
4.985437,-73.432703,Somondoco,CO,64.60125,91.375,56.0,1.8087499999999999
5.181475,7.934195,Ikot Ekpene,NG,74.0625,98.5,88.5,5.08
5.334567,-74.302917,Topaipi,CO,70.51875,82.125,38.0,2.27
5.6638889,-67.6236111,Puerto Ayacucho,VE,73.7925,98.875,76.5,3.5850000000000004
5.910443,-72.780012,Tasco,CO,53.55375,75.0,47.0,1.61375
5.965025,-75.965407,Salgar,CO,63.1925,96.875,79.5,1.39
6.0258,120.9614,Buanza,PH,82.41125,68.0,31.5,6.141249999999999
6.538889,124.9,Mabini,PH,79.175,83.25,23.5,1.8375
6.704722,124.518611,Villamor,PH,75.70499999999998,97.625,66.5,3.3324999999999996
6.7081,7.3167,Aku,NG,76.74000000000001,95.625,69.5,5.6537500000000005
6.877355,-6.450221,Daloa,CI,73.89375,95.5,78.5,5.31875
7.156944,125.699167,Tambo,PH,76.83875,83.875,17.5,2.63375
7.288889,126.573333,Santiago,PH,75.70499999999998,97.625,66.5,3.3324999999999996
7.713073,-72.657591,Durania,CO,71.28875,72.5,16.0,1.655
7.733333,4.433333,Ede,NG,76.74000000000001,95.625,69.5,5.6537500000000005
7.8766667,-11.1875,Kenema,SL,74.11875,92.625,51.5,8.953750000000001
8.0,-10.95,Segbwema,SL,74.29874999999998,95.625,86.5,6.22625
8.093678,-76.726908,Turbo,CO,54.195,71.625,72.0,3.69625
8.233611,124.600278,Talakag,PH,73.87124999999999,93.0,30.0,2.73
8.5,-82.4333333,Los Algarrobos,PA,75.3375,100.0,50.5,3.17875
8.616667,77.933333,Srivaikuntam,IN,83.32124999999999,66.875,17.0,12.1825
8.733333,76.716667,Varkkallai,IN,80.525,71.5,41.0,7.9174999999999995
8.956518,-73.625485,Pailitas,CO,78.79875,89.125,56.0,2.5624999999999996
9.199167,124.776944,Tupsan,PH,82.5,81.75,24.0,8.059999999999999
9.4547,123.2299,Tandayag,PH,77.73875000000001,89.0,68.5,5.71
9.515556,122.850556,Tabuan,PH,77.73875000000001,89.0,68.5,5.71
9.878611,123.421944,Malhiao,PH,82.475,96.125,41.5,12.18375
10.1165,123.6072,Guadalupe,PH,83.20625,93.875,51.5,12.325000000000001
10.2824,123.013,Lalagsan,PH,76.14375,92.75,84.0,5.990000000000001
10.4027778,14.44,Mindif,CM,78.27,88.0,55.0,4.563750000000001
10.6348,124.301,Consuelo,PH,77.00375,100.0,87.0,5.0375000000000005
10.75,-74.983333,Usiacuri,CO,80.72,93.5,41.5,6.563750000000001
10.9,-13.0333333,Telimele,GN,73.82625,95.75,79.0,5.346249999999999
11.152,123.7931,Pooc,PH,83.20625,93.875,51.5,12.325000000000001
11.2161,123.1073,Concepcion,PH,70.18124999999999,26.5,0.0,7.652500000000001
11.45,77.683333,Bhavani,IN,77.685,71.625,14.5,4.3549999999999995
11.496901,122.085108,Bitadton,PH,76.11,100.0,92.0,15.385
11.87,125.428333,Mantang,PH,81.015,95.625,78.5,11.986249999999998
12.2175,4.379167,Jega,NG,77.94375000000001,94.25,38.5,5.80875
12.4237,124.1811,Capul,PH,66.3525,87.5,39.0,2.3949999999999996
12.530722,99.880861,Hua Hin,TH,81.36124999999998,100.0,89.0,12.9525
12.683333,124.363611,Biri,PH,79.76625,99.125,83.5,13.903749999999999
12.8511111,-86.0994444,Sebaco,NI,80.95875000000001,71.25,22.0,7.2475000000000005
13.1763889,-87.0486111,Rio Arriba,HN,76.9425,80.625,14.5,1.8362500000000002
13.277286,121.304818,San Agustin,PH,79.44000000000001,89.25,7.5,3.86375
13.4241667,-87.4472222,San Lorenzo,HN,83.14125000000001,91.625,32.0,3.82375
13.65,123.483333,Tinawagan,PH,76.19999999999999,99.5,89.0,9.1075
13.746944,122.138611,Macalelon,PH,75.9075,98.625,85.0,8.620000000000001
14.0432,120.6892,Bilaran,PH,82.21875,98.875,59.5,11.665000000000001
14.305,-90.785,Escuintla,GT,67.16749999999999,88.0,33.0,2.11875
14.3833333,-87.2833333,Pueblo Nuevo,HN,77.38999999999999,86.0,41.0,2.42375
14.5,-4.2,Mopti,ML,77.72999999999999,94.5,32.0,8.5475
14.766667,-89.433333,San Juan Ermita,GT,66.63499999999999,88.625,54.5,2.5375
14.8,-88.2,Ceguaca,HN,74.07375000000002,87.0,53.0,2.18625
14.954722,120.896944,Baliuag,PH,75.4675,98.0,86.5,3.5549999999999997
15.275962,120.566331,San Roque,PH,80.11500000000001,99.875,78.0,14.28125
15.6333333,-86.0666667,Zamora,HN,78.315,68.125,21.0,2.01875
15.879444,108.335,Hoi An,VN,82.95875,99.75,32.5,6.17125
15.9449,120.3003,Calomboyan,PH,50.62875,45.375,0.0,4.9125
15.9948,120.424,Banaoang,PH,73.5225,96.25,63.5,2.53625
16.233333,-94.65,San Francisco Del Mar,MX,81.25125,97.375,54.0,7.7787500000000005
16.519182,121.181239,Solano,PH,70.44,95.0,69.5,2.40875
16.695,120.6553,Kibungan,PH,70.60875,97.5,56.5,2.1012500000000003
16.919054,121.629342,Diamantina,PH,75.70499999999998,97.625,66.5,3.3324999999999996
17.1,-92.883333,Pueblo Nuevo Solistahuacan,MX,72.84,86.875,43.0,1.6825
17.283333,74.55,Vite,IN,71.3625,90.75,59.5,9.287500000000001
17.6,73.166667,Dabhol,IN,77.76375,97.25,94.0,12.77
17.766667,-99.983333,Tlacotepec,MX,60.575,94.375,71.0,2.43875
18.1655,120.7175,Piddig,PH,77.70125,98.75,40.0,3.5275
18.5383333,-72.4122222,Carrefour,HT,81.5775,89.875,26.5,3.0124999999999997
18.716667,-99.783333,Zacualpan,MX,76.12875,83.875,40.5,2.3412499999999996
18.833333,79.45,Naspur,IN,81.02625,75.125,41.0,11.497499999999999
19.783333,-100.966667,Indaparapeo,MX,59.51,92.5,52.0,2.50875
19.966667,72.733333,Dahanu,IN,78.61875,100.0,84.5,16.8925
20.25,74.45,Manmad,IN,72.84750000000001,91.875,48.0,12.743749999999997
20.419722,104.043889,Xam Nua,LA,69.79875,92.375,72.5,1.9087500000000002
20.55,-102.8,Tototlan,MX,59.73,68.0,46.0,2.52125
20.716667,-89.166667,Huhi,MX,78.99125000000001,90.125,12.0,4.3812500000000005
20.816667,71.033333,Una,IN,76.03125,93.0,91.5,10.9925
21.1,82.1,Mahasamund,IN,77.24625,89.75,57.0,12.434999999999999
21.3,70.25,Keshod,IN,77.41499999999999,88.125,92.0,10.896249999999998
21.483333,109.1,Beihai,CN,76.2875,97.875,0.0,18.61625
21.8766667,-79.8402778,Condado,CU,80.70125,99.625,50.0,13.91625
22.0783333,-159.3219444,Kapaa,US,77.405,93.5,51.0,10.32375
22.1494444,-79.9736111,Manicaragua,CU,76.715,90.375,42.0,7.553750000000001
22.533333,76.683333,Satwas,IN,75.89625,91.75,81.0,11.625
22.616944,88.214444,Bhandardaha,IN,82.35125000000001,93.375,79.5,3.471249999999999
22.850416,113.247006,Daliang,CN,85.08125000000001,90.625,41.5,7.24875
23.2,77.083333,Sehore,IN,74.735,95.75,87.0,12.07125
23.333333,75.566667,Unhel,IN,75.1875,90.625,84.0,12.3225
23.633333,85.516667,Ramgarh,IN,78.32625,89.875,55.0,4.62
23.783333,86.3,Malkera,IN,78.135,95.375,70.5,3.36
24.0333333,88.9666667,Bheramara,BD,62.48374999999999,99.25,69.0,4.130000000000001
24.0833333,89.6166667,Bera,BD,80.53125,93.625,59.5,5.75125
24.383333,81.3,Govindgarh,IN,78.17999999999998,94.625,65.0,4.0325
24.716667,80.983333,Kotar,IN,76.21125,96.125,84.0,6.52
24.9,-76.2,Rock Sound,BS,83.49,98.25,65.0,15.873750000000001
25.183333,75.833333,Kota,IN,75.61500000000001,94.25,75.0,7.960000000000001
25.258172,55.304717,Dubai,AE,92.35249999999999,84.25,0.0,6.647500000000001
25.55,80.716667,Baberu,IN,75.5025,94.75,86.0,6.688750000000001
25.61,-80.4297222,Richmond West,US,81.90875,87.625,54.0,10.995
25.683333,82.416667,Machhlishahr,IN,78.61875,98.5,81.0,3.2625
26.016667,-111.35,Loreto,MX,60.28124999999999,86.375,15.0,3.4025
26.309444,127.770278,Chatan,JP,81.9,98.75,89.0,10.3375
26.416667,87.25,Jogbani,IN,82.51125,88.25,62.5,4.745
26.4669444,-81.8016667,San Carlos Park,US,59.4375,84.375,1.0,3.2775000000000007
26.588056,127.976111,Nago,JP,81.72875000000002,98.75,89.0,10.3375
26.757222,83.127778,Maghar,IN,82.33125,88.625,57.0,7.696249999999999
26.966667,75.383333,Jobner,IN,78.0125,92.75,57.5,5.6825
27.1,84.083333,Bagaha,IN,82.05000000000001,87.25,32.0,7.234999999999999
27.25,91.2,Mongar,BT,73.44375,89.25,55.0,1.45875
27.665833,120.565833,Kunyang,CN,81.78000000000002,97.625,35.5,5.291250000000001
27.734444,111.994444,Loudi,CN,80.12625,83.625,2.5,3.9200000000000004
27.983333,94.666667,Basar,IN,77.67875,87.375,59.0,1.6675
28.2486111,-81.2813889,Saint Cloud,US,67.92250000000001,98.125,92.0,10.322500000000002
28.5388889,-80.6722222,Merritt Island,US,83.46875,97.75,73.5,17.27
28.75,77.283333,Loni,IN,80.51375,97.5,64.5,3.4437499999999996
28.9166667,80.3333333,Mahendranagar,NP,79.44,89.75,27.0,3.445
29.216667,79.516667,Haldwani,IN,70.35,89.75,44.0,2.07625
29.283333,77.716667,Khatauli,IN,63.92,76.875,7.5,3.5425
29.4,78.683333,Afzalgarh,IN,78.83250000000001,94.625,60.5,3.025
29.533333,75.016667,Sirsa,IN,79.67625,96.125,61.5,3.97625
29.6991667,-91.2066667,Morgan City,US,78.71,89.875,52.5,11.497499999999999
29.916667,77.3,Nakur,IN,78.6525,96.75,60.0,3.9625
30.183333,78.116667,Doiwala,IN,77.145,95.375,65.0,3.0524999999999998
30.3580556,-90.0655556,Mandeville,US,79.49875,87.0,60.0,7.387500000000001
30.7,-111.816667,Altar,MX,81.04875000000001,55.125,5.0,4.69
30.871229,105.384542,Taihe,CN,80.50874999999999,80.125,10.0,3.2787500000000005
31.1169444,-97.7275,Killeen,US,76.32625,94.375,82.0,7.57
31.35,27.2333333,Marsa Matruh,EG,80.675,67.125,0.0,10.05875
31.612833,55.410666,Bafq,IR,74.1075,16.5,26.5,4.25625
31.783333,76.35,Nadaun,IN,76.5825,91.25,68.0,2.6899999999999995
32.022222,34.866667,Qiryat Ono,IL,78.2375,76.625,11.0,5.235
32.266667,77.166667,Manali,IN,36.870000000000005,89.875,90.0,1.3887500000000002
32.3861111,-94.8755556,Kilgore,US,77.225,93.875,82.0,6.6450000000000005
32.761667,34.971944,Tirat Karmel,IL,80.045,100.0,6.5,7.68125
32.785833,119.427778,Gaoyou,CN,70.96875,49.5,0.0,7.59625
32.979444,114.029444,Zhumadian,CN,77.12249999999999,74.625,18.5,3.2775
33.1433333,-117.1652778,San Marcos,US,67.25500000000001,80.875,23.5,3.4175
33.366667,130.516667,Tosu,JP,75.13,84.25,41.0,4.6475
33.566667,130.5,Umi,JP,75.3275,84.25,41.0,4.6475
33.6619444,-112.3405556,Sun City West,US,81.70625,44.25,0.0,4.5775
33.9411111,-84.2136111,Norcross,US,78.5925,76.125,30.0,6.08875
34.066667,136.2,Owase,JP,75.5025,96.125,88.5,7.22125
34.1213889,-118.1055556,San Marino,US,71.32875,69.875,0.0,2.1862500000000002
34.37002,73.47082,Muzaffarabad,PK,73.14,75.625,8.0,2.4925
34.7391667,-112.0091667,Cottonwood,US,62.34125,76.0,42.0,2.47875
34.873113,71.14697,Asadabad,AF,76.4925,52.0,36.0,2.29875
35.027452,135.999712,Ritto,JP,75.52875,89.0,50.0,10.518749999999999
35.3,138.933333,Gotemba,JP,71.61749999999999,93.75,71.0,4.215
35.6,138.933333,Otsuki,JP,76.67125,95.75,78.0,12.266250000000003
35.6527778,-97.4777778,Edmond,US,75.08500000000001,94.625,88.5,10.492500000000001
35.905833,14.488056,Gzira,MT,79.91749999999999,93.375,3.5,3.2912500000000002
36.1397222,-120.3591667,Coalinga,US,70.325,83.875,0.0,2.70375
36.213288,58.795755,Neyshabur,IR,59.33624999999999,28.75,0.0,4.3525
36.333333,139.45,Ashikaga,JP,72.30375000000001,89.75,61.0,4.94125
36.604981,34.308359,Erdemli,TR,76.90875,73.5,8.0,3.9212499999999997
36.8333333,22.7,Elos,GR,77.63374999999999,77.875,0.0,10.282499999999999
37.193611,122.051111,Wencheng,CN,76.45875,92.375,59.0,1.4449999999999998
37.303373,-6.300969,Pilas,ES,73.00250000000001,76.125,29.0,6.2125
37.483333,13.983333,San Cataldo,IT,73.97250000000001,82.875,1.0,3.7512499999999998
37.6189,48.5258,Khalkhal,IR,79.76625,99.125,83.5,13.903749999999999
37.7833333,20.8666667,Gaitanion,GR,78.51625,92.375,0.0,14.37625
37.916667,140.116667,Yonezawa,JP,76.29125,85.625,67.5,7.610000000000001
38.115603,-3.084799,Villacarrillo,ES,67.09875,65.5,0.0,4.0175
38.3686111,-93.7780556,Clinton,US,79.38499999999999,83.625,30.5,9.358749999999999
38.6166667,21.3,Kalivia,GR,79.51625000000001,92.25,0.0,7.737500000000001
38.829082,-9.168106,Loures,PT,69.35875,83.5,61.0,5.570000000000001
39.116667,16.783333,Petilia Policastro,IT,68.87375,83.875,4.0,2.15875
39.4036111,-76.9505556,Eldersburg,US,80.92499999999998,82.5,11.5,2.91625
39.4525,20.2761111,Plataria,GR,71.64125,62.0,1.0,3.2350000000000003
39.6482,47.9174,Parsabad,IR,69.84375,70.5,28.0,5.586250000000001
40.0575,44.4711111,Marmarashen,AM,64.97749999999999,67.625,24.5,2.6475
40.1133333,44.0552778,Sovetakan,AM,65.05624999999999,63.625,9.5,3.4025
40.4666667,19.4897222,Vlore,AL,76.75125,99.5,2.5,15.175000000000002
40.7438889,-74.0327778,Hoboken,US,79.31625000000001,89.25,7.5,3.86375
40.9113889,-73.7827778,New Rochelle,US,76.54875000000001,99.5,87.0,5.177499999999999
40.9333333,24.7166667,Khrisokhorion,GR,77.09,84.375,38.0,4.8575
41.045682,28.432325,Celaliye,TR,75.47375000000001,70.125,24.5,3.7649999999999997
41.214778,-8.588372,Milheiros,PT,59.53875000000001,68.375,0.0,8.66
41.2391667,-81.3461111,Streetsboro,US,78.4025,80.875,14.5,3.0512499999999996
41.4452778,21.0266667,Vranestica,MK,59.403749999999995,70.5,5.5,2.08875
41.647294,-8.43715,Vila Verde,PT,66.20750000000001,87.5,39.0,2.3949999999999996
41.917381,3.163098,Palafrugell,ES,69.39750000000001,96.0,40.0,4.10125
42.2813889,-83.3863889,Wayne,US,68.75,95.0,85.5,10.3375
42.6105556,-71.2347222,Tewksbury,US,77.12500000000001,73.0,51.0,4.66125
42.6402778,-87.9102778,Somers,US,78.9625,75.875,4.5,3.61375
42.65,26.9833333,Karnobat,BG,75.34625000000001,64.875,49.5,3.4875000000000003
42.963611,22.123056,Vlasotince,RS,63.30125,85.25,51.0,2.28375
43.033062,-8.80925,Santa Comba,ES,64.735,83.375,71.5,15.1325
43.0966667,-71.4655556,Hooksett,US,76.8525,78.125,0.0,5.1499999999999995
43.125833,133.133889,Partizansk,RU,68.31125,53.0,49.5,4.617500000000001
43.2080556,-71.5380556,Concord,US,64.29875,73.0,1.0,3.5300000000000002
43.566667,12.133333,Sansepolcro,IT,63.155,76.375,15.0,2.7887500000000003
43.8222222,18.2066667,Hadzici,BA,59.6825,77.375,58.5,1.9325
43.866667,10.333333,Massarosa,IT,69.39874999999999,100.0,63.0,3.2750000000000004
44.162778,80.0,Zharkent,KZ,45.17249999999999,44.375,0.0,2.99875
44.3,23.166667,Verbita,RO,67.24875,84.625,31.5,7.22
44.519722,20.573611,Sopot,RS,63.637499999999996,96.0,57.0,4.24125
44.5455,40.7933,Vladimirskaya,RU,68.80875,76.125,11.0,4.395
44.8683333,13.8480556,Pula,HR,68.345,100.0,15.5,3.41625
44.908889,78.492222,Karabulak,KZ,78.39750000000001,96.125,77.5,4.76
45.1,26.483333,Naeni,RO,74.89625,56.125,37.0,4.27
45.1,-75.216667,Chesterville,CA,64.97,85.125,16.0,4.74375
45.183333,124.816667,Fuyu,CN,78.52874999999999,99.875,53.0,8.2675
45.216667,131.083333,Jidong,CN,74.54,78.875,63.0,3.46125
45.3055556,-93.7938889,Monticello,US,81.19125000000001,73.25,24.0,4.5912500000000005
45.3566667,-122.8388889,Sherwood,US,60.551249999999996,76.0,45.5,1.7824999999999998
45.438333,21.688333,Ramna,RO,64.06625,96.75,86.0,4.647499999999999
46.033333,-74.2,Val-David,CA,63.65749999999999,83.375,14.0,3.165
46.05,25.266667,Homorod,RO,81.04,80.25,43.0,9.9175
46.101111,43.507222,Priyutnoye,RU,69.73625,43.875,34.0,16.615000000000002
46.3580556,-94.2005556,Brainerd,US,66.2225,97.75,92.0,10.100000000000001
46.65,23.133333,Marisel,RO,62.254999999999995,86.5,73.5,2.7600000000000002
46.766667,21.95,Tinca,RO,62.254999999999995,97.625,85.5,3.5424999999999995
46.816111,134.26,Bikin,RU,64.9275,98.0,97.0,7.19125
47.111313,18.129478,Berhida,HU,61.91625,99.125,81.5,7.2612499999999995
47.283333,11.6,Wattens,AT,49.41124999999999,97.0,52.5,1.6825
47.563907,19.51267,Valko,HU,52.89,74.0,7.0,3.1375000000000006
47.616667,21.35,Balmazujvaros,HU,65.83624999999999,91.5,79.0,6.478749999999999
47.688205,17.25,Bosarkany,HU,63.2725,96.25,86.5,12.491249999999999
47.983333,8.816667,Tuttlingen,DE,59.82125,82.5,25.5,3.4025
48.066667,26.65,Havarna,RO,78.42875000000001,92.5,48.0,5.02625
48.2766667,-116.5522222,Sandpoint,US,56.73125,55.0,5.0,2.3800000000000003
48.404178,24.93874,Yabluniv,UA,70.94375000000001,50.25,43.5,5.6525
48.716667,9.416667,Plochingen,DE,58.332499999999996,91.75,41.5,3.3025
48.766667,-79.0,Macamic,CA,59.618750000000006,79.75,48.0,7.08
48.833607,24.524297,Stari Bohorodchany,UA,72.915,89.125,66.0,2.2712499999999998
48.941028,16.73353,Hustopece,CZ,64.01,84.25,46.0,8.39375
49.025425,2.216907,Taverny,FR,65.465,84.125,59.5,6.688750000000001
49.18228,15.458117,Telc,CZ,59.813750000000006,92.375,39.5,6.46375
49.433333,2.083333,Beauvais,FR,63.8525,87.375,53.5,6.869999999999999
49.706317,17.076908,Litovel,CZ,62.89125,95.125,60.5,13.413749999999999
49.71,6.5002778,Wasserbillig,LU,62.3125,83.75,17.0,2.61875
49.880047,36.737232,Kochetok,UA,74.64500000000001,30.0,1.5,11.498750000000001
50.1017,40.8847,Petropavlovka,RU,49.43625,83.25,45.5,5.302499999999999
50.300642,17.324338,Mikulovice,CZ,60.99125,77.5,13.5,3.29125
50.55,9.666667,Fulda,DE,73.08375,75.0,29.5,3.375
50.7,4.033333,Enghien,BE,66.26375,85.125,55.5,3.81
50.7967,-1.083333,Portsmouth,GB,61.7975,76.125,0.0,9.12
50.992377,14.382757,Velky Senov,CZ,64.03125,72.625,14.5,4.4925
51.307193,39.217316,Novovoronezh,RU,72.545,34.375,0.0,8.00125
51.503848,3.899894,Goes,NL,66.47,97.25,40.5,10.323749999999999
51.733333,9.016667,Bad Driburg,DE,65.53125,72.5,12.0,4.88375
51.933333,10.333333,Langelsheim,DE,64.0725,80.25,3.5,5.5425
52.031712,113.500867,Chita,RU,54.727500000000006,80.0,56.0,2.5200000000000005
52.2264,35.0552,Pervoavgustovskiy,RU,75.49125,30.375,33.5,10.29375
52.443562,15.118347,Sulecin,PL,66.16250000000001,75.25,32.0,7.625
52.666667,13.283333,Hohen Neuendorf,DE,65.4175,77.875,43.0,8.53375
52.7807,52.2635,Buzuluk,RU,65.985,44.625,17.5,10.0725
52.991104,22.884219,Lapy,PL,65.72625000000001,90.75,70.0,6.87
53.3362,78.3301,Burla,RU,55.140000000000015,81.125,39.5,6.171250000000001
53.4593,85.4479,Kytmanovo,RU,47.92875,86.875,22.0,4.046250000000001
53.666667,91.666667,Zelenyy Bor,RU,59.763749999999995,86.375,52.5,6.745
53.993889,84.743056,Zalesovo,RU,50.41499999999999,86.0,37.0,4.66
54.1721,74.6946,Novovarshavka,RU,53.31750000000001,73.25,39.5,5.038749999999999
54.2833333,30.9911111,Horki,BY,70.4975,60.75,66.5,10.645
54.5,18.55,Gdynia,PL,64.5575,96.5,75.5,13.652500000000002
54.814262,73.587221,Irtyshskiy,RU,52.057500000000005,78.625,0.0,3.10875
54.8839,82.7762,Verkh-Tula,RU,53.83625,88.0,39.0,5.72375
55.1,-3.583333,Locharbriggs,GB,54.68000000000001,78.625,45.0,2.8575
55.426861,10.47137,Bullerup,DK,62.14125,92.875,7.0,5.1362499999999995
55.752222,37.615556,Moscow,RU,65.89,62.25,42.5,7.526249999999999
55.855443,11.967863,Jaegerspris,DK,62.196250000000006,90.125,4.0,5.38875
55.971111,37.920833,Ivanteyevka,RU,65.89,62.25,42.5,7.526249999999999
56.0573,99.376,Oktyabrskiy,RU,65.8975,62.25,42.5,7.526249999999999
56.333333,36.733333,Klin,RU,64.4975,75.0,55.5,9.9875
56.497793,31.63528,Toropets,RU,67.52624999999999,67.625,60.5,11.42875
57.029132,40.372664,Komsomolsk,RU,60.6975,78.625,40.0,6.828749999999999
57.1833333,26.75,Gulbene,LV,61.586250000000014,93.0,85.0,7.848750000000001
57.386983,41.286655,Privolzhsk,RU,59.955000000000005,83.125,52.0,6.702500000000001
57.683333,-4.25,Alness,GB,51.44,86.625,26.0,4.285
57.866667,11.966667,Kungalv,SE,62.48,84.0,58.5,3.655
58.048742,60.559493,Verkhnyaya Salda,RU,51.540000000000006,76.25,2.5,2.5787500000000003
58.387779,33.915463,Borovichi,RU,65.23125,74.25,53.5,9.2325
58.533333,58.766667,Sarany,RU,49.402499999999996,75.375,1.5,2.915
58.833333,6.033333,Oltedal,NO,55.662499999999994,88.75,25.0,2.4937499999999995
58.956389,126.2925,Tommot,RU,39.9975,79.0,29.0,3.8075
59.185384,60.518458,Lobva,RU,52.89,74.0,7.0,3.1375000000000006
59.373557,41.030474,Shuyskoye,RU,59.775,90.125,64.5,6.6049999999999995
59.483333,60.516667,Serov,RU,72.1575,69.125,69.0,5.151249999999999
59.5113889,24.8211111,Haabneeme,EE,64.31375,93.375,48.0,7.5975
59.614622,39.684037,Ustye,RU,62.53125000000001,98.875,68.5,8.981250000000001
60.020433,30.63716,Vsevolozhsk,RU,65.0975,86.625,71.0,5.459999999999999
60.153228,30.516463,Toksovo,RU,65.0975,86.625,71.0,5.459999999999999
60.383333,5.466667,Espeland,NO,56.55749999999999,87.5,23.0,2.42375
60.633333,6.433333,Vossevangen,NO,52.55250000000001,80.5,47.5,1.8362500000000002
60.918533,34.06427,Nikolskiy,RU,62.846250000000005,83.5,74.5,5.08
60.962251,46.483206,Krasavino,RU,58.90875,85.375,28.5,5.192500000000001
61.1531,41.343,Ust-Shonosha,RU,59.662499999999994,87.25,63.5,6.953749999999999
61.468056,128.920278,Mokhsogollokh,RU,46.556250000000006,71.75,65.0,3.6675
61.6,9.75,Vinstra,NO,49.31250000000001,98.375,88.5,2.1325000000000003
61.95,159.233333,Evensk,RU,49.09875,100.0,38.5,4.24125
62.105278,129.726944,Markha,RU,42.802499999999995,73.0,6.0,4.03125
62.433333,22.183333,Kauhajoki,FI,58.677499999999995,82.25,84.0,3.235
62.477778,17.306944,Timra,SE,58.1625,83.875,59.0,5.347500000000001
62.848698,34.826211,Povenets,RU,60.72,85.25,32.5,5.99
62.883333,152.433333,Seymchan,RU,61.721250000000005,94.375,77.5,5.626250000000001
63.3,18.716667,Ornskoldsvik,SE,56.666250000000005,95.0,65.0,7.33
63.416667,10.416667,Trondheim,NO,49.52,96.75,49.0,2.8975
63.716667,8.833333,Sistranda,NO,52.651250000000005,99.0,38.5,6.50625
63.833333,-20.4,Hella,IS,47.65875,98.25,55.0,9.302499999999998
63.866667,34.316667,Nadvoitsy,RU,62.45249999999999,81.375,50.5,4.535000000000001
64.4,11.4,Bangsund,NO,47.445,90.5,31.5,3.1375
64.566667,143.2,Ust-Nera,RU,34.800000000000004,72.75,13.5,2.20125
64.700136,43.393619,Pinega,RU,61.946250000000006,82.125,58.5,5.33125
65.008331,53.911278,Izhma,RU,57.896249999999995,79.625,20.0,5.29
65.333333,21.5,Pitea,SE,54.73625,88.125,56.5,8.853750000000002
65.466667,12.216667,Bronnoysund,NO,50.974999999999994,99.75,12.0,6.1274999999999995
65.887591,44.112612,Kamenka,RU,67.63875,54.875,26.5,6.0725
66.083333,60.516667,Verkhnyaya Inta,RU,60.1575,74.5,49.5,7.652499999999999
66.283333,14.066667,Hauknes,NO,41.53875000000001,93.125,46.5,2.19875
66.53,66.601944,Salekhard,RU,59.325,77.125,66.0,13.943749999999998
66.8,13.933333,Glomfjord,NO,41.8625,94.0,30.5,1.9637499999999999
66.967203,30.349053,Alakurtti,RU,56.085,72.375,61.5,4.13125
67.316667,14.45,Lopsmarka,NO,47.7575,100.0,55.0,4.465
67.564142,33.4031,Apatity,RU,54.588750000000005,77.25,63.0,3.1375
67.641793,53.043071,Naryan-Mar,RU,56.816250000000004,83.0,75.0,11.485
67.800556,130.411389,Batagay-Alyta,RU,28.679999999999996,66.375,12.0,3.9362500000000002
68.216667,-135.0,Aklavik,CA,38.978750000000005,94.125,47.5,13.120000000000001
68.368056,17.588889,Beisfjord,NO,43.002500000000005,99.375,63.0,2.07625
68.883333,33.016667,Vidyayevo,RU,49.65875,96.625,66.5,4.00375
69.118333,17.800556,Moen,NO,43.66749999999999,97.25,70.5,2.1325
69.166667,172.7,Komsomolskiy,RU,55.364999999999995,86.75,90.0,11.792499999999999
69.383333,178.416667,Leningradskiy,RU,40.785000000000004,93.25,72.5,10.9925
69.583333,20.216667,Lyngseidet,NO,42.845,98.375,46.0,2.0337500000000004
69.966667,23.241667,Alta,NO,44.91875,96.625,72.5,3.87875
70.016667,135.6,Ust-Kuyga,RU,34.96875,70.75,21.0,9.344999999999999
70.366667,31.1,Vardo,NO,49.86874999999999,97.625,49.0,8.521249999999998
70.633333,23.666667,Rypefjord,NO,49.2675,98.0,85.5,14.056249999999999
70.85,29.1,Berlevag,NO,48.795,84.5,81.5,10.853749999999998
71.033333,27.85,Mehamn,NO,48.761250000000004,78.0,86.5,11.216249999999999
71.2905556,-156.7886111,Barrow,US,79.88,77.375,8.0,10.71625
71.687222,128.869444,Tiksi,RU,38.1075,80.875,20.0,20.6825
71.966667,102.5,Khatanga,RU,42.48374999999999,93.25,91.0,22.85
72.7833333,-56.1666667,Upernavik,GL,37.42125,98.75,0.0,10.379999999999999
73.506944,80.546389,Dikson,RU,42.32625,98.375,79.0,32.98625
77.3025,-68.8425,Narsaq,GL,33.34125,85.25,62.5,5.12375
77.4894444,-69.3322222,Qaanaaq,GL,31.672500000000003,100.0,69.0,7.58375
78.2166667,15.6333333,Longyearbyen,SJ,36.68375,100.0,73.5,2.7037500000000003
